[
  {
    "name": "Obelisco",
    "address": "Av. 9 de Julio s/n, C1043 Cdad. Autónoma de Buenos Aires, Argentina",
    "latitude": -34.603722,
    "longitude": -58.381592,
    "image": "https://upload.wikimedia.org/wikipedia/commons/thumb/5/5b/Obelisco_de_Buenos_Aires_2019.jpg/1024px-Obelisco_de_Buenos_Aires_2019.jpg",
    "rating": null,
    "city": "Buenos Aires",
    "description": "Monumento icónico en el centro de Buenos Aires, símbolo de la ciudad y punto de encuentro para locales y turistas."
  },
  {
    "name": "Plaza de Mayo",
    "address": "Plaza de Mayo, C1002 Cdad. Autónoma de Buenos Aires, Argentina",
    "latitude": -34.608056,
    "longitude": -58.370278,
    "image": "https://upload.wikimedia.org/wikipedia/commons/thumb/9/9f/Vista_Plaza_de_Mayo%2C_Cabildo%2C_Casa_Rosada_04.jpg/2560px-Vista_Plaza_de_Mayo%2C_Cabildo%2C_Casa_Rosada_04.jpg",
    "rating": null,
    "city": "Buenos Aires",
    "description": "Plaza histórica frente a la Casa Rosada, escenario de numerosas manifestaciones políticas y punto central de la vida porteña."
  },
  {
    "name": "La Boca",
    "address": "La Boca, C1165 Buenos Aires, Argentina",
    "latitude": -34.6345,
    "longitude": -58.3631,
    "image": "https://upload.wikimedia.org/wikipedia/commons/9/99/Buenos_Aires-La_Boca-P2070003.JPG",
    "rating": null,
    "city": "Buenos Aires",
    "description": "Barrio colorido conocido por su herencia tanguera y el club de fútbol Boca Juniors, con casas pintadas en vivos colores."
  },
  {
    "name": "Palermo",
    "address": "Palermo, C1414 Buenos Aires, Argentina",
    "latitude": -34.5711,
    "longitude": -58.4233,
    "image": "https://upload.wikimedia.org/wikipedia/commons/c/c2/Lago_del_rosedal_palermo_chico.jpg",
    "rating": null,
    "city": "Buenos Aires",
    "description": "Barrio moderno con parques extensos, restaurantes de calidad y atracciones culturales, ideal para pasear y disfrutar de la vida urbana."
  },
  {
    "name": "Puerto Madero",
    "address": "Puerto Madero, C1107 Buenos Aires, Argentina",
    "latitude": -34.6118,
    "longitude": -58.3628,
    "image": "https://upload.wikimedia.org/wikipedia/commons/thumb/f/f8/Puerto_Madero%2C_Buenos_Aires_%2839662321492%29.jpg/2560px-Puerto_Madero%2C_Buenos_Aires_%2839662321492%29.jpg",
    "rating": null,
    "city": "Buenos Aires",
    "description": "Distrito moderno junto al río con antiguos depósitos reconvertidos en restaurantes, oficinas y espacios culturales."
  },
  {
    "name": "San Telmo",
    "address": "San Telmo, C1073 Buenos Aires, Argentina",
    "latitude": -34.6211,
    "longitude": -58.3731,
    "image": "https://upload.wikimedia.org/wikipedia/commons/thumb/6/61/Buenos_Aires_-_Plaza_Dorrego_-_20061204d.jpg/2560px-Buenos_Aires_-_Plaza_Dorrego_-_20061204d.jpg",
    "rating": null,
    "city": "Buenos Aires",
    "description": "Barrio histórico famoso por sus mercados de antigüedades, ferias dominicales y bailes de tango tradicionales."
  },
  {
    "name": "Caminito",
    "address": "Caminito, La Boca, C1169 Buenos Aires, Argentina",
    "latitude": -34.6389,
    "longitude": -58.3631,
    "image": "https://upload.wikimedia.org/wikipedia/commons/e/ed/LaBoca_ST_98.jpg",
    "rating": null,
    "city": "Buenos Aires",
    "description": "Calle colorida en La Boca, cuna del tango, con artistas callejeros y arquitectura pintoresca que evoca la historia del barrio."
  },
  {
    "name": "Museo Nacional de Bellas Artes",
    "address": "Av. del Libertador 1473, C1425 Buenos Aires, Argentina",
    "latitude": -34.5833,
    "longitude": -58.3917,
    "image": "https://upload.wikimedia.org/wikipedia/commons/8/8e/MNBA_fachada.jpg",
    "rating": null,
    "city": "Buenos Aires",
    "description": "Museo principal de arte de Argentina con extensas colecciones de arte argentino e internacional, desde obras clásicas hasta contemporáneas."
  },
  {
    "name": "Cementerio de la Recoleta",
    "address": "Junín 1760, C1113 Cdad. Autónoma de Buenos Aires, Argentina",
    "latitude": -34.5874,
    "longitude": -58.3931,
    "image": "https://upload.wikimedia.org/wikipedia/commons/thumb/a/af/Cementerio_de_la_Recoleta_4.JPG/2560px-Cementerio_de_la_Recoleta_4.JPG",
    "rating": null,
    "city": "Buenos Aires",
    "description": "Cementerio famoso conocido por sus elaborados mausoleos y su historia, lugar de descanso de figuras ilustres de Argentina."
  },
  {
    "name": "El Ateneo Grand Splendid",
    "address": "Av. Sta. Fe 1860, C1123 Cdad. Autónoma de Buenos Aires, Argentina",
    "latitude": -34.5959833,
    "city": "Buenos Aires",
    "longitude": -58.3942285,
    "image": "https://upload.wikimedia.org/wikipedia/commons/thumb/a/ac/Yenny_Ateneo_Grand_Splendid.jpg/2560px-Yenny_Ateneo_Grand_Splendid.jpg",
    "rating": null,
    "description": "Librería histórica y hermosa ubicada en un antiguo teatro, con arquitectura impresionante y ambiente único para los amantes de los libros."
  },
  {
    "name": "Barrio Chino",
    "address": "Barrio Chino, C1428 Buenos Aires, Argentina",
    "latitude": -34.5571344,
    "longitude": -58.4508815,
    "image": "https://upload.wikimedia.org/wikipedia/commons/thumb/3/38/BarrioChino2.jpg/960px-BarrioChino2.jpg",
    "rating": null,
    "city": "Buenos Aires",
    "description": "Barrio Chino vibrante con tiendas, restaurantes y una comunidad cultural diversa que ofrece una experiencia culinaria única."
  },
  {
    "name": "Estadio Alberto J Armando",
    "address": "Brandsen 805, C1161AAQ Cdad. Autónoma de Buenos Aires, Argentina",
    "latitude": -34.6356109,
    "longitude": -58.3647563,
    "image": "https://upload.wikimedia.org/wikipedia/commons/8/8b/Vista_a%C3%A9rea_del_Estadio_Alberto_J._Armando_%22La_Bombonera%22_01.jpg",
    "rating": null,
    "city": "Buenos Aires",
    "description": "Estadio del famoso club de fútbol Boca Juniors, escenario de partidos apasionantes y con una atmósfera única."
  },
  {
    "name": "Rosedal de Palermo",
    "address": "Palermo, C1425 Buenos Aires, Argentina",
    "latitude": -34.5706506,
    "longitude": -58.4172996,
    "image": "https://upload.wikimedia.org/wikipedia/commons/thumb/d/df/Rosedal_Rosas_rojas.jpg/2560px-Rosedal_Rosas_rojas.jpg",
    "rating": null,
    "city": "Buenos Aires",
    "description": "Hermoso jardín de rosas en Palermo, popular para paseos románticos y sesiones de fotos en un entorno natural."
  },
  {
    "name": "Casa Rosada",
    "address": "Balcarce 78, C1064AAC Cdad. Autónoma de Buenos Aires, Argentina",
    "latitude": -34.6080556,
    "longitude": -58.3702778,
    "image": "https://upload.wikimedia.org/wikipedia/commons/thumb/e/ec/Casa_Rosada%2C_Buenos_Aires%2C_Argentina.jpg/960px-Casa_Rosada%2C_Buenos_Aires%2C_Argentina.jpg",
    "rating": null,
    "city": "Buenos Aires",
    "description": "La mansión ejecutiva y oficina del Presidente de Argentina, edificio histórico de color rosa con balcones famosos."
  },
  {
    "name": "Jardín Japonés",
    "address": "Av. Casares 3450, C1425EWN C1425EWN, Cdad. Autónoma de Buenos Aires, Argentina",
    "latitude": -34.5748341,
    "longitude": -58.4084219,
    "image": "https://upload.wikimedia.org/wikipedia/commons/d/de/Jard%C3%ADn_Japon%C3%A9s_de_Buenos_Aires.jpg",
    "rating": null,
    "city": "Buenos Aires",
    "description": "Jardín japonés tranquilo con estanques, puentes y diseño tradicional, oasis de paz en medio de la ciudad."
  },
  {
    "name": "Teatro Colón",
    "address": "Cerrito 628, C1010 Cdad. Autónoma de Buenos Aires, Argentina",
    "latitude": -34.601152,
    "longitude": -58.3833278,
    "image": "https://upload.wikimedia.org/wikipedia/commons/a/a3/Colon-interior-escenario-TM.jpg",
    "rating": null,
    "city": "Buenos Aires",
    "description": "Una de las grandes casas de ópera del mundo con arquitectura impresionante y acústica excepcional."
  },
  {
    "name": "Cataratas del Iguazú",
    "address": "Provincia de Misiones, Argentina",
    "latitude": -25.6953,
    "longitude": -54.4367,
    "image": "https://upload.wikimedia.org/wikipedia/commons/f/fc/CPonte_Iguazu2.JPG",
    "rating": null,
    "city": "Puerto Iguazú",
    "description": "Cataratas espectaculares en Misiones cerca de la triple frontera, una de las maravillas naturales del mundo con una fuerza impresionante."
  },
  {
    "name": "Glaciar Perito Moreno",
    "address": "Parque Nacional Los Glaciares, Provincia de Santa Cruz, Argentina",
    "latitude": -50.4964,
    "longitude": -73.1278,
    "image": "https://upload.wikimedia.org/wikipedia/commons/2/2b/Glaciar_Perito_Moreno%2C_Santa_Cruz%2C_PN_Los_Glaciares%2C_Argentina.jpg",
    "rating": null,
    "city": "El Calafate",
    "description": "Glaciar masivo en la Patagonia, conocido por sus formaciones de hielo en avance y paisajes espectaculares."
  }
]